stop_id,stop_code,stop_name,stop_desc,stop_lat,stop_lon,zone_id,stop_url,location_type,parent_station,stop_timezone,wheelchair_boarding,platform_code
7475_A,,京都産業大学前,京都産業大学前（シャトルバス）,35.071302,135.756499,,,0,7475,,,京都産業大学シャトルバス
129A00,,"上賀茂神社前","上賀茂神社前(上賀茂シャトル)",35.058513,135.751608,,,0,,,,京都産業大学シャトルバス
034A20,,"西賀茂車庫前","西賀茂車庫前(上賀茂シャトル臨時停留所)",35.064288,35.064288,,,0,,,,京都産業大学シャトルバス
6196_A,,二軒茶屋,二軒茶屋（二軒茶屋シャトル）,35.077392,135.765886,,,0,,,,京都産業大学シャトルバス
566A00,,"総合グラウンド","総合グラウンド(体育館シャトル)",35.079467,135.742410,,,0,,,,京都産業大学シャトルバス
7475,,京都産業大学前,,35.071710,135.756655,,,1,,,,